id,name,external_id,state,country,mw,mwh,status,date_first_heard,start_construction,start_operation,start_estimated,owner,is_megapack,is_tesla,lat,long,coords_hint,has_user_data,project_website,link1,link2,link3,link4
1,Kapolei Energy Storage,66067,hawaii,usa,185,565,operation,2023-01,2021-08-25,2023-12,,"Kapolei Energy Storage I, LLC",True,True,21.328169,-158.105085,1,True,https://www.kapoleienergystorage.com/overview,https://www.tesmanian.com/blogs/tesmanian-blog/tesla-565-mwh-megapack-project-in-hawaii-celebrates-groundbreaking-ceremony,https://twitter.com/Tesla_Megapack/status/1745499330612748482,,
2,Victorian Big Battery,,victoria,australia,300,450,operation,2020-11-01,2021-01-01,2021-12-08,,,True,True,-38.037741,144.290949,1,True,https://victorianbigbattery.com.au/,https://www.teslarati.com/telsa-megpack-victorian-big-battery-launched/,https://techau.com.au/victorias-grid-just-got-greener-thanks-to-212-tesla-megapack-batteries-300mw-450mwh/,https://www.bestmag.co.uk/indnews/tesla%E2%80%99s-lithium-ion-megapack-causes-three-day-fire-during-test-australian-300mw-ess,https://www.energy-storage.news/victorian-big-battery-australias-biggest-battery-storage-system-at-450mwh-is-online/
3,Saticoy,63891,california,usa,100,400,operation,2020-09,2020-11,2021-04,,"Ventura Energy Storage, LLC",True,True,34.25773,-119.158534,1,True,,https://electrek.co/2021/06/30/tesla-megapacks-power-on-battery-replacing-gas-peaker-plant-california/,https://www.prnewswire.com/news-releases/arevon-powers-oxnard-forward-with-saticoy-battery-storage-project-301321788.html,https://arevonenergy.com/location/saticoy/,
4,California Flats,,california,usa,130,240,operation,2021-03-21,,2023-04-06,,,True,True,35.87009,-120.326403,1,True,,https://www.teslarati.com/tesla-megapack-apple-solar-farm-california/,https://www.apple.com/newsroom/2021/03/apple-powers-ahead-in-new-renewable-energy-solutions-with-over-110-suppliers/,https://www.firstsolar.com/en/Resources/Projects/California-Flats,https://www.youtube.com/watch?v=SA3SdlKBtyc
5,Nofar Israel,,,israel,100,0,planning,2021-03-16,,,,,True,True,31.961747,34.835081,0,True,,https://www.tesmanian.com/blogs/tesmanian-blog/tsla-receives-30-million-order-for-energy-storage-system-from-nofar-energy,,,
6,Gambit Energy Storage - Angleton Storage,64528,texas,usa,100,175,operation,2021-04,2021-06,2021-06,,Tesla Inc.,True,True,29.168189,-95.445369,1,True,https://www.gambit-energystorage.com/,https://www.teslarati.com/tesla-texas-big-battery-report/,https://twitter.com/Tesla_Megapack/status/1770174273719513120,https://www.youtube.com/watch?v=OottNRdebs8,https://www.sec.gov/Archives/edgar/data/1318605/000156459021004599/tsla-ex211_15.htm
7,Elkhorn Battery Energy Storage System,62564,california,usa,182,730,operation,2020-09,2020-12,2022-04,,Pacific Gas & Electric Co.,True,True,36.807971,-121.781701,1,True,,https://www.teslarati.com/tesla-megapack-battery-moss-landing-completion-video/,https://en.wikipedia.org/wiki/Tesla_Megapack,,
8,Hornsdale Power Reserve,,south australia,australia,150,194,operation,2017-03-10,2017-08-01,2017-12-01,,,False,True,-33.085797,138.518339,1,True,https://hornsdalepowerreserve.com.au/,https://en.wikipedia.org/wiki/Hornsdale_Power_Reserve,,,
9,Osaka Trains,,,japan,0,12,operation,,,2019-03-27,,,False,True,34.701231,135.494584,0,True,,https://www.teslarati.com/telsa-powerpack-osaka-japan/,,,
10,Hokkaido,,,japan,0,6,planning,2021-08-19,,,,,True,True,43.325369,142.589328,0,True,,https://www.bloomberg.com/news/articles/2021-08-19/tesla-plotting-battery-storage-entry-into-japan-s-power-market,,,
11,Vallecito,62801,california,usa,10,40,operation,2020-09,2020-11-05,2021-02,,"Viridity Energy Solutions, Inc.",True,True,34.408083,-119.512937,1,True,,https://www.tesmanian.com/blogs/tesmanian-blog/tesla-begins-installation-of-15-megapacks-at-carpinteria-santa-barbara-county,https://clean-coalition.org/news/vallecito-energy-storage-resilience-vesr-project-online-december/,,
12,Wallgrove Grid Battery,,new south wales,australia,50,75,operation,2020-10-27,2021-02-01,2021-12-01,,,True,True,-33.817659,150.828087,1,True,https://www.transgrid.com.au/wallgrovebattery,https://www.tesmanian.com/blogs/tesmanian-blog/tesla-and-transgrid-will-build-tesla-megapack-battery-in-western-sydney-australia,https://arena.gov.au/projects/transgrid-wallgrove-battery/,,
13,EReserve 1-9 (9 different locations),,alberta,canada,180,315,operation,2020-10-17,,2024-02-06,,Enfinite,True,True,55.740245,-118.700003,1,True,https://ereserve-project.com/,http://td.mediaroom.com/2020-10-14-TD-Greystone-Infrastructure-Fund-Invested-in-Canadas-Largest-Battery-Energy-Storage-System,https://www.teslarati.com/tesla-canada-biggest-battery-energy-storage-system/,https://x.com/Tesla_Megapack/status/1781467958218469840,https://www.energy-storage.news/enfinite-energises-60mw-of-bess-in-alberta-canada-completing-nine-project-portfolio/
16,WindCharger,,alberta,canada,10,20,operation,,,2020-10-15,,,True,True,49.582737,-113.794235,1,True,,https://www.transaltarenewables.com/2020/10/15/transalta-renewables-announces-commercial-operation-of-windcharger-albertas-first-utility-scale-battery-storage-project/,https://www.teslarati.com/tesla-megapack-alberta-windcharger-complete/,https://transalta.com/wp-content/uploads/2020/04/WindCharger_Construction_Start_Newsletter_2020.pdf,
17,Holes Bay,,dorset,uk,7,15,operation,,,2020-09-18,,,True,True,50.726395,-1.9901,1,True,,https://www.teslarati.com/tesla-megapack-autobidder-uk-energy-grid-debut/,https://www.bloomberg.com/news/articles/2020-09-18/six-giant-tesla-batteries-used-to-keep-lights-on-in-britain,https://www.harmonyenergy.co.uk/general/video-holes-bay-battery-energy-storage-plant/,https://frv.com/en/projects/holes-bay/
18,switch datacenter,,nevada,usa,0,0,planning,2020-07-24,,,,,True,True,36.058908,-115.21174,0,True,,https://electrek.co/2020/07/24/tesla-megapack-project-switch-datacenter/,,,
19,Kauai Island,,hawaii,usa,0,52,operation,,,2017-03-08,,,False,True,21.998353,-159.378905,1,True,,https://www.theverge.com/2017/3/8/14854858/tesla-solar-hawaii-kauai-kiuc-powerpack-battery-generator,https://www.youtube.com/watch?v=X45Iv6b5Zs4&t=78s,https://en.wikipedia.org/wiki/Kauai,
20,Mira Loma Substation,,california,usa,20,80,operation,,,2017-06-02,,,False,True,34.00548,-117.566749,1,True,,https://www.theverge.com/2017/2/6/14523196/tesla-battery-powerpack-los-angeles-electricity,,,
21,ngen slovenia 2,,,slovenia,15,30,operation,,,2020-10-13,,,True,True,46.391223,15.78985,1,True,,https://www.teslarati.com/tesla-megapack-installation-ngen-slovenia/,,,
22,ngen slovenia 1,,,slovenia,12,22,operation,,,2019-10-14,,,False,True,46.418237,14.10062,1,True,,https://www.youtube.com/watch?v=v9j-2lsMcJ0,,,
23,Soldotna,57206,alaska,usa,46,93,operation,2020-09,2020-11,2022-01,,Homer Electric Assn Inc,True,True,60.500441,-150.996312,1,True,,https://www.homerelectric.com/2019/12/battery-energy-storage-system-bess-coming-to-hea/,https://www.homerelectric.com/2021/07/battery-energy-storage-system-has-arrived/,,
24,Colorado ,,colorado,usa,4,16,operation,2018-10-14,,2019-01-22,,,False,True,40.577109,-104.40854,0,True,,https://www.youtube.com/watch?v=dyAhUREGDzA,https://electrek.co/2018/10/14/tesla-powerpack-project-save-colorado-ratepayers/,,
25,Nantucket,,massachusetts,usa,6,48,operation,2017-11-08,,2019-19-09,,,False,True,41.258489,-70.051666,1,True,,https://electrek.co/2017/11/08/tesla-powerpack-island-of-nantucket/,https://electrek.co/2019/10/09/tesla-big-powerpack-nantucket/,,
26,Guildford electric buses,,,uk,0,15,operation,,,2019-06-26,,,False,True,51.205099,-0.581772,1,True,,https://electrek.co/2019/06/26/tesla-powerpacks-charge-electric-buses/,https://www.teslarati.com/tesla-powerpacks-clean-up-britain-public-transportation/,,
27,Gannawarra Solar Farm,,victora,australia,25,50,operation,,,2018-11-16,,,False,True,-35.734258,143.780015,1,True,,https://electrek.co/2018/11/16/tesla-powerpack-project-australia-megapack/,,,
28,Lake Bonney Wind Farm,,south australia,australia,25,52,operation,2018-08-15,,2020-01-22,,,False,True,-37.738826,140.38693,1,True,,https://electrek.co/2018/08/15/tesla-powerpack-win-contract-battery-system/,https://www.pv-magazine.com/2020/01/22/lake-bonney-big-battery-ready-to-supply-teslas-australian-ev-charger-network/,,
29,Ta'u island,,american samoa,usa,0,6,operation,,,2016-11-22,,,False,True,-14.219534,-169.494626,1,True,,https://electrek.co/2016/11/22/tesla-island-microgrid-battery-solar/,,,
30,Samoa,,,samoa,0,13,operation,,,2018-07-25,,,False,True,-13.885669,-171.884245,1,True,,https://electrek.co/2018/07/25/tesla-microgrid-powerpack-projects-samoa-fossil-fuel-free/,,,
31,Pinal Central Solar Energy Center,,arizona,usa,10,40,operation,,,2018-05-29,,,False,True,32.868983,-111.557171,1,True,,https://electrek.co/2018/05/29/tesla-powerpacks-without-logo-new-solar-project-arizona/,https://www.youtube.com/watch?v=e9RuVL3t4jQ,,
32,Terhills,,,belgium,18,29,operation,,,2018-05-14,,,False,True,51.006595,5.711134,1,True,,https://electrek.co/2018/05/14/tesla-powerpack-project-grid-balancing-europe/,,,
33,Ozop New York,,new york,usa,2,4,planning,2021-08-25,,,,,False,True,40.645624,-73.940749,0,True,,https://www.globenewswire.com/news-release/2021/08/25/2286612/0/en/Ozop-Energy-Solutions-Inc-to-Utilize-Tesla-MEGAPACK-in-Battery-Storage-System-Design-Updated.html,https://www.globenewswire.com/news-release/2021/08/18/2282824/0/en/Ozop-Energy-Solutions-OZSC-Announces-Stem-Smart-Energy-Storage-2MW-4MWh-Project-in-New-York-City.html,,
34,"Goleta Energy Storage, LLC",66394,california,usa,60,160,operation,2023-04,2023-07,2024-01,,"Goleta Energy Storage, LLC",True,True,34.43274,-119.869283,1,True,https://www.cityofgoleta.org/city-hall/planning-and-environmental-review/ceqa-review/cortona-battery-storage-project,https://www.cityofgoleta.org/Home/Components/News/News/14634/3875?npage=2,,,
35,Contego,,west sussex,uk,34,68,operation,,,2021-09-07,,,True,True,50.955104,-0.163008,1,True,https://www.harmonyenergy.co.uk/projects/,https://www.teslarati.com/tesla-batteries-uk-largest-energy-storage/,https://www.youtube.com/watch?v=zh6PFeObrHs,,
36,Trents Energy Storage,,,barbados,5,20,operation,,,2017-01-01,,,False,True,13.293125,-59.627449,1,True,,https://www.blpc.com.bb/images/watts_new_print/LEX_BLPC_Newsletter_2020_Vol19_SEP3.pdf?type=file,https://www.solarbarbados.com/2019/05/09/first-utility-scale-solar-farm-10mw-in-barbados/,,
45,Riverina 1 + 2 / Darlington Point Energy Storage,,new south wales,australia,150,300,operation,2021-05-25,,2023-10-09,2023Q1,,True,True,-34.646927,146.03516,1,True,https://edifyenergy.com/project/riverina-darlington-point/,https://www.pv-magazine-australia.com/2023/10/09/edify-claims-new-era-in-energy-transition-as-nsws-largest-battery-system-goes-live/,https://www.power-technology.com/news/edify-shell-riverina-energy-storage/,https://www.energy-storage.news/tesla-megapacks-picked-for-edifys-300mwh-australia-battery-portfolio/,https://pp.planningportal.nsw.gov.au/major-projects/projects/darlington-point-solar-farm
62,"Eland Solar & Storage Center, Phase 1 Hy",61168,california,usa,150,600,operation,2020-09,2022-01,2024-11,2023,68SF 8me LLC,True,True,35.198008,-117.991201,1,True,,https://www.8minute.com/2020/01/capital-dynamics-and-8minute-solar-energy-partner-on-breakthrough-400mwac-eland-solar-storage-center/,https://x.com/Tesla_Megapack/status/1794120454883659833,,
76,Clay Tye,,essex,uk,99,198,operation,,2021-09-06,2024-03-22,,,True,True,51.552193,0.297889,1,True,,https://www.harmonyenergy.co.uk/general/work-starts-on-uks-largest-battery-project/,https://x.com/Tesla_Megapack/status/1775254497973202985,https://www.solarpowerportal.co.uk/harmony-energy-frv-energise-99mw-198mwh-bess-in-essex/,
101,Arroyo Solar Energy Storage Hybrid,63172,new mexico,usa,150,600,operation,2020-09,2021-10,2023-07,2022Q4,Arroyo Solar LLC,True,True,35.9703,-107.5631,1,True,,https://www.energy-storage.news/new-mexicos-largest-solar-plus-storage-plant-in-utility-coal-retirement-plan-acquired-by-de-shaw/,https://reneweconomy.com.au/new-mexico-utility-to-replace-coal-plant-with-four-solar-and-battery-projects-31989/,https://www.pnmforwardtogether.com/assets/uploads/replacement-plan-filing-july2019/07_Thomas_G_Fallgrenl.pdf,https://www.gem.wiki/Arroyo_Solar_Energy_Storage_Hybrid#cite_note-USEia2022March-1
111,Agua Fria,141,arizona,usa,25,100,operation,2021-10,,2021-09,,Salt River Project,True,True,33.553691,-112.212654,1,True,,https://media.srpnet.com/srps-largest-energy-storage-facility-now-online/,https://www.energy-storage.news/arizona-utility-srp-brings-online-25mw-100mwh-tesla-megapack-battery-storage-project/,,
113,Cranberry Point Energy Storage,62844,massachusetts,usa,150,300,construction,2020-09,2024-04,,2025-05,Cranberry Point Energy Storage LLC,True,True,41.896693,-70.786639,1,True,https://cranberrypointenergystorage.com/,https://www.greentechmedia.com/articles/read/plus-power-breaks-open-new-england-market-for-massive-batteries,https://twitter.com/SharifaDarani/status/1612314447074439168,,
114,Cross Town Energy Storage,66606,maine,usa,175,350,construction,2023-05,2024-04,,2025-08,Cross Town Energy Storage LLC,True,True,43.68383,-70.39786,1,True,https://www.crosstownenergystorage.com/about,https://www.greentechmedia.com/articles/read/plus-power-breaks-open-new-england-market-for-massive-batteries,https://twitter.com/SharifaDarani/status/1612314447074439168,,
118,Mohammed bin Rashid Al Maktoum Solar Park,,,uae,1,8,operation,,,2021-09-27,,Dubai Electricity and Water Authority (DEWA),True,True,24.765375,55.367443,0,True,,https://www.asiantechpress.com/dubai-launches-pilot-project-for-energy-storage-with-tesla-megapack.html,https://www.pv-magazine.com/2021/09/27/teslas-storage-facility-comes-online-at-mohammed-bin-rashid-solar-park-in-dubai/,,
119,Bouldercombe,,queensland,australia,50,100,operation,2021-10-05,,2023-11-10,2023H1,Genex Power,True,True,-23.537188,150.48991,3,True,https://www.genexpower.com.au/bouldercombe-battery-project.html,https://www.energy-storage.news/tesla-megapacks-picked-for-genex-powers-50mw-100mwh-battery-project-in-queensland-australia/,https://cleantechnica.com/2021/10/05/genex-power-will-use-40-tesla-megapacks-for-bouldercome-battery-project/,https://twitter.com/SawyerMerritt/status/1722857295078383700,
129,Chapel Farm,7058,eastern,uk,49,99,operation,2019-06-13,,2023-06-16,2023Q1,Harmony Energy,True,True,51.925834,-0.499999,2,True,,https://reneweconomy.com.au/tag-energy-to-use-tesla-megapacks-in-two-new-battery-storage-projects-in-uk/,https://twitter.com/Tesla_Megapack/status/1669479285848182784,,
130,Jamesfield Organic Centre - Battery Storage,10863,scotland,uk,49,98,operation,2022-06-07,2023-01-01,2024-02-01,2023Q1,Harmony Energy Storage,True,True,56.347678,-3.298351,2,True,,https://reneweconomy.com.au/tag-energy-to-use-tesla-megapacks-in-two-new-battery-storage-projects-in-uk/,https://www.harmonyenergyplanning.co.uk/jamesfield/,,
164,"Eland Solar & Storage Center, Phase 2 Hy",61169,california,usa,150,600,construction,2020-09,2024-12,,2025-03,69SV 8me LLC,True,True,35.198008,-117.994,2,True,,https://twitter.com/SawyerMerritt/status/1760848348607594844,https://renewablesnow.com/news/arevon-secures-over-usd-1bn-for-california-solar-plus-storage-project-849335/,https://x.com/Tesla_Megapack/status/1794120454883659833,
193,Silverstrand Grid Energy Storage System,63735,california,usa,11,46,operation,2020-09,2021-01,2021-04,,"Silverstrand Grid, LLC",True,True,34.205195,-119.058256,3,True,,https://beiconstruction.com/expanding-energy-storage-resources-with-tesla-megapacks/,,,
228,Townsite Solar Project Hybrid,60654,nevada,usa,90,360,operation,2020-09,2021-08,2021-12,2021-11,"Townsite Solar, LLC",True,True,35.935805,-114.869386,1,True,,https://www.tesla.com/videos/townsite-solar-storage,https://arevonenergy.com/location/townsite/,,
299,Pillswood Phase 1 ,7005,yorkshire and humber,uk,49,98,operation,2019-06-13,2022-04-01,2022-11-01,,Harmony Energy Storage,True,True,53.801332,-0.415133,2,True,,https://www.heitp.co.uk/content/uploads/2022/09/263502_Harmony_RA_2022_Web.pdf,https://www.insidermedia.com/news/yorkshire/battery-energy-storage-facility-brought-online,https://www.londonstockexchange.com/news-article/HEIT/pillswood-energisation/15722939,
404,Holes Bay,7688,south west,uk,15,15,construction,2020-04-29,2020-01-01,,,Harmony Energy,True,True,50.726324,-1.990215,2,False,,,,,
410,Rye Common,7737,south east,uk,49,198,planning,2021-10-06,,,2024Q3,Pulse Clean Energy,True,True,51.248047,-0.87689,2,True,,https://www.theaic.co.uk/aic/news/citywire-news/harmony-energy-looks-at-fund-options-after-c-share-flop,https://www.investegate.co.uk/harmony-energy-inc.--heit-/rns/acquisition-of-three-pipeline-projects/202212150700037588J/,https://publicaccess.hart.gov.uk/online-applications/applicationDetails.do?keyVal=R56JLBHZGS400&activeTab=summary,https://publicaccess.hart.gov.uk/online-applications/applicationDetails.do?activeTab=summary&keyVal=RJ0K4PHZ0GB00
489,Rusholme Grange ,9121,yorkshire and humber,uk,40,70,planning,2021-09-03,,,2023Q3,Harmony Energy Storage,True,True,53.73117,-0.937436,2,True,,https://www.heitp.co.uk/content/uploads/2022/09/263502_Harmony_RA_2022_Web.pdf,https://public.selby.gov.uk/online-applications/applicationDetails.do?activeTab=summary&keyVal=QT1W2CNXJ6D00,,
548,Blythe Mesa Solar II,65053,california,usa,112,448,operation,2021-11,2022-01,2022-12,2022-11,"Blythe Mesa Solar II, LLC",True,True,33.586448,-114.733459,1,True,https://www.intersectpower.com/portfolio/,https://www.intersectpower.com/press-releases/intersect-power-reaches-commercial-operation-of-310-mwp-athos-iii-solar-storage-project-in-california/,https://www.intersectpower.com/press-releases/tesla-provides-intersect-power-with-15-3-gwh-of-megapacks-for-solar-storage-projects/,,
691,Kogan Creek / Chinchilla,,queensland,australia,100,200,operation,2022-03-30,,2024-03-05,2023Q4,,True,True,-26.917756,150.746113,2,True,,https://www.energy-storage.news/queensland-government-invests-in-200mwh-tesla-megapack-bess-at-coal-power-plant-site/,https://twitter.com/Tesla_Megapack/status/1703911766596751682,https://twitter.com/SawyerMerritt/status/1764791615061668146,
697,Vikings Energy Farm,65711,california,usa,150,600,operation,2022-07,2023-10,2024-05,2023-12,"Vikings Energy Farm, LLC",True,True,32.804395,-115.274713,2,True,https://arevonenergy.com/location/viking/,https://arevonenergy.com/arevon-acquires-vikings-energy-farm/,https://www.solarpowerworldonline.com/2023/02/solv-energy-breaks-ground-solar-peaker-plant-california/,,
701,Oberon Solar Project,65734,california,usa,125,500,operation,2022-08,2022-09,2023-09,2023-06,IP Oberon LLC,True,True,33.717864,-115.358576,2,True,,https://www.pv-tech.org/us-government-approves-500mw-co-located-project-in-california-desert/,http://www.aspeneg.com/oberon-renewable-energy-project/,https://www.intersectpower.com/press-releases/tesla-provides-intersect-power-with-15-3-gwh-of-megapacks-for-solar-storage-projects/,
702,Oberon II Solar Project,65735,california,usa,125,500,operation,2022-08,2022-12,2023-09,2023-09,"IP Oberon II, LLC",True,True,33.718247,-115.35194,2,True,,https://www.pv-tech.org/us-government-approves-500mw-co-located-project-in-california-desert/,http://www.aspeneg.com/oberon-renewable-energy-project/,https://www.intersectpower.com/press-releases/tesla-provides-intersect-power-with-15-3-gwh-of-megapacks-for-solar-storage-projects/,
774,"Nighthawk Energy Storage, LLC",65889,california,usa,300,1200,planning,2022-09,,,2025-05,"Nighthawk Energy Storage, LLC",True,True,32.957486,-117.038749,3,True,https://arevonenergy.com/location/nighthawk/,https://arevonenergy.com/nighthawk-utility-scale-storage-facility-to-use-tesla-megapack/,,,
824,"Gleniston, Auchtertool - Battery Storage Facility",11808,scotland,uk,49,99,operation,2022-11-01,,2023-10,2023Q4,Harmony Energy Limited,True,True,56.11287,-3.271262,2,True,https://www.heitp.co.uk/portfolio/projects-overview/key-information-about-little-raith-bess/,https://www.heitp.co.uk/content/uploads/2022/09/263502_Harmony_RA_2022_Web.pdf,https://planning.fife.gov.uk/online/applicationDetails.do?keyVal=READTEHF1AL00&activeTab=summary,,
843,Lessines,,,belgium,50,100,operation,,,2022-12-11,,,True,True,50.72743,3.854307,1,True,,https://insideevs.com/news/625965/tesla-megapack-battery-belgium/,,,
844,Bumpers,,buckinghamshire,uk,99,198,operation,,2022-10-17,2023-10,2023-08-25,Harmony Energy Income Trust,True,True,51.7485,-0.88913,1,True,https://www.heitp.co.uk/portfolio/projects-overview/key-information-about-bumpers-bess/,https://docs.planning.org.uk/20211124/124/R1F0N4SCKAZ00/pev22n27dqbm87mh.pdf,https://api-gb.one.network/downloads/tm/1016/ttro-application-form_131178395_3494207_17135d8618.pdf,https://planning.org.uk/app/124/R1F0N4SCKAZ00,https://twitter.com/heitplc/status/1679460677226823680
845,Broadditch,,kent,uk,11,22,operation,,,2022-12-01,2022Q4,Harmony Energy Income Trust,True,True,51.41493,0.32622,1,True,,https://www.heitp.co.uk/content/uploads/2022/09/263502_Harmony_RA_2022_Web.pdf,https://docs.planning.org.uk/20211013/85/R07CFUBQJGV00/lu3um7x6cbswjxy0.pdf,,
846,Pillswood Phase 2,7360,yorkshire and humber,uk,49,98,operation,2020-01-31,2022-04-01,2022-11-01,,Harmony Energy Storage,True,True,53.802281,-0.416949,2,True,,https://www.heitp.co.uk/content/uploads/2022/09/263502_Harmony_RA_2022_Web.pdf,https://www.insidermedia.com/news/yorkshire/battery-energy-storage-facility-brought-online,https://www.londonstockexchange.com/news-article/HEIT/pillswood-energisation/15722939,https://twitter.com/Tesla_Megapack/status/1661649261757612032
847,Farnham,,surrey,uk,20,40,operation,,,2023-05,2023Q1,Harmony Energy Income Trust,True,True,51.18894,-0.82903032,1,True,,https://www.heitp.co.uk/content/uploads/2022/09/263502_Harmony_RA_2022_Web.pdf,https://modgov.waverley.gov.uk/documents/s24387/Western06Jun18%20-%20B1%20-%20Land%20to%20the%20rear%20of%20substation.pdf,https://www.heitp.co.uk/portfolio/projects-overview/key-information-about-farnham-bess/,
848,Wormald Green,,yorkshire,uk,33,66,planning,,,,2024Q1,Harmony Energy Income Trust,True,True,54.07548,-1.52312,0,True,,https://www.theaic.co.uk/aic/news/citywire-news/harmony-energy-looks-at-fund-options-after-c-share-flop,https://www.investegate.co.uk/harmony-energy-inc.--heit-/rns/acquisition-of-three-pipeline-projects/202212150700037588J/,,
849,Hawthorn Pit,,county durham,uk,49,99,planning,,,,2024Q2,Harmony Energy Income Trust,True,True,54.80552,-1.40646,0,True,,https://www.theaic.co.uk/aic/news/citywire-news/harmony-energy-looks-at-fund-options-after-c-share-flop,https://www.investegate.co.uk/harmony-energy-inc.--heit-/rns/acquisition-of-three-pipeline-projects/202212150700037588J/,,
850,Western Downs Battery,,queensland,australia,270,540,construction,2022-12-29,2023-01,,2025Q1,Neoen,True,True,-26.976142,150.666771,2,True,https://westerndownsgreenpowerhub.com.au/,https://neoen.com/en/news/2022/neoen-launches-construction-of-its-200-mw-400-mwh-western-downs-battery-in-queensland-australia/,https://neoen.com/en/news/2023/neoen-expands-the-size-of-its-western-downs-battery-in-queensland-australia-to-270-mw-540-mwh/,,
851,Sierra Estrella Energy Storage,66334,arizona,usa,250,1000,operation,2023-03,2023-09,2024-05,2024,"Sierra Estrella Energy Storage, LLC",True,True,33.410648,-112.313765,1,True,https://www.sierraestrellaenergystorage.com/about,https://www.sierraestrellaenergystorage.com/s/01_11-07-2022_READ-ONLY_Sierra-Estrella-LS-208_FullSize.pdf,https://electrek.co/2024/06/27/tesla-megapack-project-giant-online-arizona/,,
852,Superstition Energy Storage,66333,arizona,usa,90,360,operation,2023-03,2024-04,2024-07,2024,"Superstition Energy Storage, LLC",True,True,33.358927,-111.831039,1,True,https://www.superstitionenergystorage.com/about,https://www.energy-storage.news/arizona-utility-srp-to-arrive-at-800mw-battery-storage-by-mid-2024-with-two-new-deals/,https://twitter.com/SharifaDarani/status/1612314447074439168,https://electrek.co/2024/06/27/tesla-megapack-project-giant-online-arizona/,
864,Condor Energy Storage LLC,66285,california,usa,200,800,operation,2023-03,2023-10,2024-05,,Condor Energy Storage LLC,True,True,34.020505,-117.332255,2,True,https://arevonenergy.com/location/condor/,https://arevonenergy.com/new-utility-scale-battery-storage-facility-planned-for-city-of-grand-terrace/,,,
865,Peregrine Energy Storage LLC,66286,california,usa,200,800,construction,2023-03,2024-08,,2025-03,"Peregrine Energy Storage, LLC",True,True,32.692183,-117.13667,2,True,https://arevonenergy.com/location/peregrine/,https://arevonenergy.com/new-utility-scale-battery-storage-facility-planned-for-san-diego/,,,
866,Oneida Energy Storage Project,,ontario,canada,250,1000,planning,2023-02-10,,,2025,Northland Power ** SNGRDC,True,True,42.886859,-80.12224,3,True,https://www.snfuture.com/projects/oneida-energy-storage/,https://driveteslacanada.ca/energy/nrstor-to-build-250mw-1000mwh-tesla-megapack-project-in-ontario/,,,
1174,Collie Battery Stage 1,,western australia,australia,219,877,construction,2023-06-19,2023-06-21,,2024Q4,neoen,True,True,-33.31604,116.289605,2,True,https://colliebattery.com.au,https://neoen.com/en/news/2023/neoen-to-build-its-first-long-duration-battery-after-winning-a-197-mw-contract-in-western-australia/,https://colliebattery.com.au/2023/06/21/collie-battery-stage-1-ntp/,,
1175,Chingjia Energy,,,taiwan,0,200,planning,2023-08-23,,,,Chingjia Energy,True,True,24.222065,120.945036,-2,True,,https://twitter.com/Tesla_Megapack/status/1693770142554189983,,,
1176,GFTX BESS,67860,texas,usa,125,250,operation,2024-09,2023-07-19,2024-08,,Giga Texas Energy LLC,True,True,30.230756,-97.615973,1,True,,https://twitter.com/Tesla_Megapack/status/1681503667030212608,https://twitter.com/JoeTegtmeyer/status/1654619434261135360,https://twitter.com/SawyerMerritt/status/1682834256928571392,https://x.com/Tesla_Megapack/status/1791530954261172681
1321,Swanbank,,queensland,australia,250,500,construction,,2024-02-19,,2025-06,,True,True,-27.649131,152.814807,2,True,,https://twitter.com/SawyerMerritt/status/1759460910530265090,https://reneweconomy.com.au/works-begin-on-giant-queensland-tesla-battery-at-site-of-former-coal-plant/,,
1329,Scatter Wash 1,67454,arizona,usa,170,680,construction,2024-05,2024-09,,2025-04,"Strata Manager, LLC",True,True,33.685402,-112.125062,3,True,,https://twitter.com/SawyerMerritt/status/1748500029197726146,https://www.energy-storage.news/strata-breaks-ground-on-1gwh-arizona-bess/,,
1331,Scatter Wash 2,67455,arizona,usa,85,340,construction,2024-05,2024-09,,2025-05,"Strata Manager, LLC",True,True,33.685402,-112.125062,3,True,,https://twitter.com/SawyerMerritt/status/1748500029197726146,https://www.energy-storage.news/strata-breaks-ground-on-1gwh-arizona-bess/,,
1374,Sendai,,miyagi,japan,11,43,operation,,,2024-06-17,,Kenes,True,True,38.271948,140.833529,3,True,,https://x.com/Tesla_Megapack/status/1802738958679285856,,,
1379,Hornsea Project Three - Battery Storage,9754,eastern,uk,200,600,planning,2023-01-23,,,2026Q4,Orsted Power (UK) Limited,True,True,52.575424,1.247254,2,True,,https://x.com/Tesla_Megapack/status/1800920444276543858,https://orsted.com/en/media/news/2024/06/orsted-invests-in-battery-energy-storage-system-co-1390267511,,
1390,Supernode Stage 1,,queensland,australia,250,520,construction,,2024-04-11,,2025Q4,Quinbrook,True,True,-27.318405,152.969631,2,True,https://supernode.com.au/project/metro-dc/,https://reneweconomy.com.au/construction-starts-on-sunshine-states-biggest-battery-after-landing-oftake-deal-with-origin-energy/,https://driveteslacanada.ca/news/tesla-megapack-set-to-triple-brisbane-based-supernode-battery-storage-project/,https://x.com/FredericLambert/status/1811399467070894094,https://www.pv-magazine-australia.com/2024/04/12/quinbrook-closes-first-stage-of-2-gwh-supernode-battery-project/
1391,Supernode Stage 2,,queensland,australia,250,1040,planning,2024-07-11,,,,Quinbrook,True,True,-27.320103,152.970537,2,True,https://supernode.com.au/project/metro-dc/,https://driveteslacanada.ca/news/tesla-megapack-set-to-triple-brisbane-based-supernode-battery-storage-project/,https://x.com/FredericLambert/status/1811399467070894094,,
1392,Brendale BESS,,queensland,australia,205,410,construction,2023-12-21,2024-08-09,,2025-07,Akaysha Energy,True,True,-27.329132,152.973193,1,True,https://akayshaenergy.com/projects/brendale-bess,https://www.energy-storage.news/australia-blackrock-backed-developer-akaysha-energy-progresses-710mwh-of-queensland-bess-projects/,https://x.com/SawyerMerritt/status/1821734359713341758,,
1393,Ville-sur-Haine,,,belgium,50,200,planning,2023-06-13,,,2024-12,Eneco,True,True,50.47647,4.077998,3,True,,https://www.pv-magazine.com/2023/06/13/eneco-to-build-50-mw-200-mwh-project-in-belgium/,,,
1394,Collie Battery Stage 2,,western australia,australia,341,1363,construction,,2024-05-01,,2025Q4,neoen,True,True,-33.31,116.29,2,True,https://colliebattery.com.au,https://colliebattery.com.au/2024/05/01/construction-stage2/,,,
1395,Orana BESS,,new south wales,australia,415,1660,planning,2024-07-15,,,2026,Akaysha Energy,True,True,-32.527608,148.958942,2,True,,https://x.com/SawyerMerritt/status/1812687836887281794,https://akayshaenergy.com/news/akaysha-energy-secures-largest-bess-financing-globally-at-650-million,,
1396,Limondale,,new south wales,australia,50,400,planning,2024-05-28,,,2025Q4,RWE,True,True,-34.774873,143.526866,2,True,,https://x.com/SawyerMerritt/status/1795348622864945179,https://reneweconomy.com.au/germany-energy-giant-presses-go-on-australias-first-eight-hour-big-battery/,,
1397,Glenbrook,,,new zealand,100,200,planning,2024-06-30,,,2026Q1,Contact Energy,True,True,-37.203762,174.734204,2,True,,https://x.com/SawyerMerritt/status/1807635731197702615,https://www.nzherald.co.nz/business/glenbrook-to-get-big-grid-scale-battery-as-contact-teams-up-with-tesla/5KULSHHUVFEWFBSXYU3G42ONEE/,https://www.pv-magazine-australia.com/2024/07/10/contact-teams-with-tesla-on-200-mwh-battery-for-nz/,
1398,Melbourne Renewable Energy Hub (MREH),,victoria,australia,600,1600,construction,,2023-11-01,,2025,Equis Australia,True,True,-37.662505,144.735229,2,True,https://energyinfrastructureaustralia.com/equis/mreh,https://x.com/SawyerMerritt/status/1789375399815704925,https://www.energy-storage.news/victorias-sec-equis-australia-au400-million-nem-first-4-hour-battery-storage-project/,,
1399,Stanwell,,queensland,australia,300,1200,construction,2024-05-09,2024-08-12,,2027,state of queensland,True,True,-23.515484,150.322479,2,True,,https://www.energy-storage.news/queensland-to-build-1200mwh-publicly-owned-battery-storage-asset-at-stanwell-coal-power-station/,https://x.com/SawyerMerritt/status/1788386533281579269,https://x.com/SawyerMerritt/status/1823097802433462495,
1476,Chevire,,,france,100,200,planning,2024-07-22,,,2025Q4,Harmony Energy,True,True,47.295351,-2.169911,3,True,,https://x.com/Tesla_Megapack/status/1815413445715792277,https://www.pv-magazine.com/2024/07/23/harmony-energy-to-build-frances-largest-battery-storage-project/,,
1477,Radian,,texas,usa,160,320,construction,2024-07-18,,,2024-12,,True,True,31.5481,-99.1872,2,True,,https://www.gem.wiki/Radian_solar_farm,https://www.intersectpower.com/press-releases/tesla-provides-intersect-power-with-15-3-gwh-of-megapacks-for-solar-storage-projects/,https://www.powerprogress.com/news/tesla-supplies-bess-megapacks-to-intersect-power/8038321.article,
1478,Lumina I,,texas,usa,160,320,construction,2024-07-18,,,2024-12,,True,True,32.9011,-100.9827,2,True,,https://www.gem.wiki/Lumina_Solar_Project,https://www.intersectpower.com/press-releases/tesla-provides-intersect-power-with-15-3-gwh-of-megapacks-for-solar-storage-projects/,https://www.powerprogress.com/news/tesla-supplies-bess-megapacks-to-intersect-power/8038321.article,
1479,Lumina II,,texas,usa,160,320,construction,2024-07-18,,,2024-12,,True,True,32.8835,-100.7464,2,True,,https://www.gem.wiki/Lumina_Solar_Project,https://www.intersectpower.com/press-releases/tesla-provides-intersect-power-with-15-3-gwh-of-megapacks-for-solar-storage-projects/,https://www.powerprogress.com/news/tesla-supplies-bess-megapacks-to-intersect-power/8038321.article,
1480,Koorangie energy storage system (KESS),,victoria,australia,185,370,construction,2023-11-01,2024-07-25,,2025,sosteneo,True,True,-35.727072,143.752267,2,True,https://edifyenergy.com/project/koorangie-energy-storage-system/,https://www.pv-magazine-australia.com/2024/07/25/koorangie-storage-facility-hits-milestone-with-delivery-of-100-tesla-megapacks/,https://www.smart-energy.com/regional-news/australia-new-zealand/shell-backed-koorangie-battery-project-completes-financing/,,
1509,Western Downs Battery (phase 2),,queensland,australia,270,540,planning,2024-08-27,,,2026,Neoen,True,True,-26.976,150.666,2,True,https://westerndownsgreenpowerhub.com.au/,https://reneweconomy.com.au/queenslands-biggest-battery-to-double-in-size-after-agl-signs-virtual-contract,https://neoen.com/en/news/2024/neoen-to-build-stage-2-of-western-downs-battery-after-signing-a-200-mw-virtual-battery-contract-with-agl-energy/,,
1510,Robins BESS,,georgia,usa,128,512,planning,2024-08-29,,,2026,Georgia Power,True,True,32.662531,-83.613538,3,True,,https://www.world-energy.org/article/44398.html,,,
1511,Moody BESS,,georgia,usa,49,198,planning,2024-08-29,,,2026,Georgia Power,True,True,30.851636,-83.255266,3,True,,https://www.world-energy.org/article/44398.html,,,
1512,Hammond BESS,,georgia,usa,57,230,planning,2024-08-29,,,2026,Georgia Power,True,True,34.25055,-85.34292,2,True,,https://www.world-energy.org/article/44398.html,,,
1513,McGrau Ford Phase II,,georgia,usa,265,1060,planning,2024-08-29,,,2026,Georgia Power,True,True,34.329369,-84.336195,3,True,,https://www.world-energy.org/article/44398.html,,,
